Time,header.seq,header.stamp.secs,header.stamp.nsecs,header.frame_id,point.x,point.y,point.z
1574431772.1211498,7413,1574431772,120691061,,-7.2,0.0,0.0
1574431772.169717,7414,1574431772,168941020,,-7.2,0.0,0.0
1574431772.2176807,7415,1574431772,216928005,,-7.2,0.0,0.0
1574431772.2656858,7416,1574431772,264830112,,-7.2,0.0,0.0
1574431772.3298283,7417,1574431772,328989982,,-7.2,0.0,0.0
1574431772.3791094,7418,1574431772,377136945,,-7.2,0.0,0.0
1574431772.425917,7419,1574431772,425198078,,-7.2,0.0,0.0
1574431772.4734418,7420,1574431772,472899913,,-7.2,0.0,0.0
1574431772.522582,7421,1574431772,521159887,,-7.2,0.0,0.0
1574431772.569732,7422,1574431772,568968057,,-7.2,0.0,0.0
1574431772.6191556,7423,1574431772,618382930,,-7.2,0.0,0.0
1574431772.6816282,7424,1574431772,681193113,,-7.2,0.0,0.0
1574431772.7302973,7425,1574431772,729724884,,-7.2,0.0,0.0
1574431772.7786632,7426,1574431772,777669906,,-7.2,0.0,0.0
1574431772.826126,7427,1574431772,825567960,,-7.2,0.0,0.0
1574431772.8734252,7428,1574431772,873086929,,-7.2,0.0,0.0
1574431772.9216752,7429,1574431772,921240091,,-7.2,0.0,0.0
1574431772.9696712,7430,1574431772,969218969,,-7.2,0.0,0.0
1574431773.0187285,7431,1574431773,17395019,,-7.2,0.0,0.0
1574431773.082146,7432,1574431773,81199884,,-7.2,0.0,0.0
1574431773.1310077,7433,1574431773,129715919,,-7.2,0.0,0.0
1574431773.1780875,7434,1574431773,177328109,,-7.2,0.0,0.0
1574431773.2261734,7435,1574431773,225522041,,-7.2,0.0,0.0
1574431773.2739754,7436,1574431773,273392915,,-7.2,0.0,0.0
1574431773.3221543,7437,1574431773,321414947,,-7.2,0.0,0.0
1574431773.3700738,7438,1574431773,369363069,,-7.2,0.0,0.0
1574431773.434229,7439,1574431773,433518886,,-7.2,0.0,0.0
1574431773.4821863,7440,1574431773,481573104,,-7.2,0.0,0.0
1574431773.5303688,7441,1574431773,529675960,,-7.2,0.0,0.0
1574431773.578791,7442,1574431773,578315019,,-7.2,0.0,0.0
1574431773.6267905,7443,1574431773,625806093,,-7.2,0.0,0.0
1574431773.6742795,7444,1574431773,673604965,,-7.2,0.0,0.0
1574431773.723335,7445,1574431773,721882104,,-7.2,0.0,0.0
1574431773.7866497,7446,1574431773,785465002,,-7.2,0.0,0.0
1574431773.8351717,7447,1574431773,834026098,,-7.2,0.0,0.0
1574431773.8821752,7448,1574431773,881795883,,-7.2,0.0,0.0
1574431773.9303374,7449,1574431773,929836988,,-7.2,0.0,0.0
1574431773.978677,7450,1574431773,977765083,,-7.2,0.0,0.0
1574431774.028561,7451,1574431774,26047945,,-7.2,0.0,0.0
1574431774.074343,7452,1574431774,73724031,,-7.2,0.0,0.0
1574431774.1224704,7453,1574431774,121911048,,-7.2,0.0,0.0
1574431774.1875196,7454,1574431774,185977935,,-7.2,0.0,0.0
1574431774.2348542,7455,1574431774,234220981,,-7.2,0.0,0.0
1574431774.2825694,7456,1574431774,282016038,,-7.2,0.0,0.0
1574431774.331363,7457,1574431774,330221891,,-7.2,0.0,0.0
1574431774.3789334,7458,1574431774,377876996,,-7.2,0.0,0.0
1574431774.4273734,7459,1574431774,426073074,,-7.2,0.0,0.0
1574431774.4746778,7460,1574431774,473886966,,-7.2,0.0,0.0
1574431774.5390062,7461,1574431774,538338899,,-7.2,0.0,0.0
1574431774.5870848,7462,1574431774,586097002,,-7.2,0.0,0.0
1574431774.634912,7463,1574431774,634279966,,-7.2,0.0,0.0
1574431774.684073,7464,1574431774,682497024,,-7.2,0.0,0.0
1574431774.7316277,7465,1574431774,730333089,,-7.2,0.0,0.0
1574431774.779029,7466,1574431774,778239965,,-7.2,0.0,0.0
1574431774.8273082,7467,1574431774,826257944,,-7.2,0.702,0.0
1574431774.8747876,7468,1574431774,874196052,,-7.2,0.0,0.0
1574431774.939845,7469,1574431774,938672065,,-7.2,0.0,0.0
1574431774.9879367,7470,1574431774,986593008,,-7.2,0.0,0.0
1574431775.0358891,7471,1574431775,34724950,,-7.2,0.0,0.0
1574431775.0829039,7472,1574431775,82387924,,-7.2,0.702,0.0
1574431775.1316447,7473,1574431775,130495071,,-7.2,0.0,0.0
1574431775.179059,7474,1574431775,178319931,,-7.2,0.0,0.0
1574431775.2275147,7475,1574431775,226792097,,-7.2,0.0,0.0
1574431775.2919207,7476,1574431775,290618896,,-7.2,0.0,0.0
1574431775.339359,7477,1574431775,338538885,,-7.2,0.0,0.0
1574431775.3867466,7478,1574431775,386298894,,-7.2,0.0,0.0
1574431775.4358373,7479,1574431775,434604883,,-7.2,0.0,0.0
1574431775.4832242,7480,1574431775,482340097,,-7.2,0.0,0.0
1574431775.5311527,7481,1574431775,530630111,,-7.2,0.0,0.0
1574431775.5791342,7482,1574431775,578497886,,-7.2,0.0,0.0
1574431775.6439822,7483,1574431775,642525911,,-7.2,0.0,0.0
1574431775.6923802,7484,1574431775,690687894,,-7.2,0.0,0.0
1574431775.7393594,7485,1574431775,738821983,,-7.2,0.0,0.0
1574431775.7877302,7486,1574431775,786576986,,-7.2,0.0,0.0
1574431775.8376403,7487,1574431775,835469961,,-7.2,0.0,0.0
1574431775.883439,7488,1574431775,882714986,,-7.2,0.0,0.0
1574431775.9313583,7489,1574431775,930824995,,-7.2,0.0,0.0
1574431775.9789698,7490,1574431775,978532075,,-7.2,0.0,0.0
1574431776.04394,7491,1574431776,42691946,,-7.2,0.0,0.0
1574431776.0908844,7492,1574431776,90584993,,-7.2,0.0,0.0
1574431776.1395397,7493,1574431776,138817071,,-7.2,0.0,0.0
1574431776.1878164,7494,1574431776,186798095,,-7.2,0.0,0.0
1574431776.2356122,7495,1574431776,234901905,,-7.2,0.0,0.0
1574431776.283253,7496,1574431776,282583951,,-7.2,0.0,0.0
1574431776.3325317,7497,1574431776,330921888,,-7.2,0.0,0.0
1574431776.3953269,7498,1574431776,394685029,,-7.2,0.0,0.0
1574431776.444365,7499,1574431776,443224906,,-7.2,0.0,0.0
1574431776.4919887,7500,1574431776,490977048,,-7.2,0.0,0.0
1574431776.5396168,7501,1574431776,539060115,,-7.2,0.0,0.0
1574431776.587786,7502,1574431776,586823940,,-7.2,0.0,0.0
1574431776.6368558,7503,1574431776,635389089,,-7.2,0.0,0.0
1574431776.6842244,7504,1574431776,683015108,,-7.2,0.0,0.0
1574431776.748301,7505,1574431776,746928930,,-7.2,0.0,0.0
1574431776.7963083,7506,1574431776,795111894,,-7.2,0.0,0.0
1574431776.8437262,7507,1574431776,842962026,,-7.2,0.0,0.0
1574431776.8918319,7508,1574431776,891087055,,-7.2,0.0,0.0
1574431776.9400775,7509,1574431776,939302921,,-7.2,0.0,0.0
1574431776.988257,7510,1574431776,987868070,,-7.2,0.0,0.0
1574431777.0358932,7511,1574431777,35192012,,-7.2,0.0,0.0
1574431777.0838513,7512,1574431777,83051919,,-7.2,0.0,0.0
1574431777.1485555,7513,1574431777,147340059,,-7.2,0.0,0.0
1574431777.196176,7514,1574431777,195247888,,-7.2,0.0,0.0
1574431777.2437043,7515,1574431777,243238925,,-7.2,0.0,0.0
1574431777.2917254,7516,1574431777,291141033,,-7.2,0.0,0.0
1574431777.3403926,7517,1574431777,339273929,,-7.2,0.0,0.0
1574431777.3885453,7518,1574431777,387254953,,-7.2,0.0,0.0
1574431777.4358575,7519,1574431777,435342073,,-7.2,0.0,0.0
1574431777.4995103,7520,1574431777,499155044,,-7.2,0.0,0.0
1574431777.5482316,7521,1574431777,547380924,,-7.2,0.0,0.0
1574431777.5959463,7522,1574431777,595386028,,-7.2,0.0,0.0
1574431777.644111,7523,1574431777,643404006,,-7.2,0.0,0.0
1574431777.6919029,7524,1574431777,691270112,,-7.2,0.0,0.0
1574431777.7401938,7525,1574431777,739398956,,-7.2,0.0,0.0
1574431777.788044,7526,1574431777,787540912,,-7.2,0.0,0.0
1574431777.851791,7527,1574431777,851274013,,-7.2,0.0,0.0
1574431777.900694,7528,1574431777,899688959,,-7.2,0.0,0.0
1574431777.9485285,7529,1574431777,947586059,,-7.2,0.0,0.0
1574431777.996341,7530,1574431777,995671987,,-7.2,0.0,0.0
1574431778.0441475,7531,1574431778,43473005,,-7.2,0.0,0.0
1574431778.0921512,7532,1574431778,91655969,,-7.2,0.0,0.0
1574431778.1419687,7533,1574431778,139841079,,-7.2,0.0,0.0
1574431778.1898274,7534,1574431778,189009904,,-7.2,0.0,0.0
1574431778.2530558,7535,1574431778,251924991,,-7.2,0.0,0.0
1574431778.3001952,7536,1574431778,299627065,,-7.2,0.0,0.0
1574431778.3497872,7537,1574431778,347920894,,-7.2,0.0,0.0
1574431778.396217,7538,1574431778,395658016,,-7.2,0.0,0.0
1574431778.4441059,7539,1574431778,443661928,,-7.2,0.0,0.0
1574431778.492311,7540,1574431778,491662025,,-7.2,0.0,0.0
1574431778.5410883,7541,1574431778,539793968,,-7.2,0.0,0.0
1574431778.605035,7542,1574431778,604159116,,-7.2,0.0,0.0
1574431778.652403,7543,1574431778,651714086,,-7.2,0.0,0.0
1574431778.7004797,7544,1574431778,699913978,,-7.2,0.0,0.0
1574431778.7497435,7545,1574431778,748100996,,-7.2,0.0,0.0
1574431778.797805,7546,1574431778,795756101,,-7.2,0.0,0.0
1574431778.844917,7547,1574431778,844119071,,-7.2,0.0,0.0
1574431778.8924506,7548,1574431778,891882896,,-7.2,0.0,0.0
1574431778.9408078,7549,1574431778,939840078,,-7.2,0.0,0.0
1574431779.0067239,7550,1574431779,3756999,,-7.2,0.0,0.0
1574431779.052866,7551,1574431779,51882028,,-7.2,0.0,0.0
1574431779.100923,7552,1574431779,100014925,,-7.2,0.0,0.0
1574431779.1496387,7553,1574431779,148171901,,-7.2,0.0,0.0
1574431779.197577,7554,1574431779,196252107,,-7.2,0.0,0.0
1574431779.2447827,7555,1574431779,244175910,,-7.2,0.0,0.0
1574431779.292471,7556,1574431779,291863918,,-7.2,0.0,0.0
1574431779.3574002,7557,1574431779,356355905,,-7.2,0.0,0.0
1574431779.4047716,7558,1574431779,404135942,,-7.2,0.0,0.0
1574431779.453579,7559,1574431779,452179908,,-7.2,0.0,0.0
1574431779.5008817,7560,1574431779,500154972,,-7.2,0.0,0.0
1574431779.5488443,7561,1574431779,548228025,,-7.2,0.0,0.0
1574431779.5967205,7562,1574431779,596052885,,-7.2,0.0,0.0
1574431779.6451669,7563,1574431779,644309997,,-7.2,0.0,0.0
1574431779.7101035,7564,1574431779,708257913,,-7.2,0.0,0.0
1574431779.7574265,7565,1574431779,756196975,,-7.2,0.0,0.0
1574431779.804499,7566,1574431779,804125070,,-7.2,0.0,0.0
1574431779.8536553,7567,1574431779,852574110,,-7.2,0.0,0.0
1574431779.9011059,7568,1574431779,900438070,,-7.2,0.0,0.0
1574431779.9512734,7569,1574431779,948342084,,-7.2,0.0,0.0
1574431779.9977036,7570,1574431779,996407032,,-7.2,0.0,0.0
1574431780.046063,7571,1574431780,44517993,,-7.2,0.0,0.0
1574431780.1092227,7572,1574431780,108515024,,-7.2,0.0,0.0
1574431780.158354,7573,1574431780,156332015,,-7.2,0.0,0.0
1574431780.2063372,7574,1574431780,205179929,,-7.2,0.0,0.0
1574431780.2536097,7575,1574431780,252579927,,-7.2,0.0,0.0
1574431780.3017054,7576,1574431780,300584077,,-7.2,0.0,0.0
1574431780.3494444,7577,1574431780,348519086,,-7.2,0.0,0.0
1574431780.3980126,7578,1574431780,396460056,,-7.2,0.0,0.0
1574431780.460946,7579,1574431780,460412979,,-7.2,0.0,0.0
1574431780.5099833,7580,1574431780,508956909,,-7.2,0.0,0.0
1574431780.5583856,7581,1574431780,556586980,,-7.2,0.0,0.0
1574431780.604975,7582,1574431780,604530096,,-7.2,0.0,0.0
1574431780.6535776,7583,1574431780,652705907,,-7.2,0.0,0.0
1574431780.7016346,7584,1574431780,700828075,,-7.2,0.0,0.0
1574431780.7489848,7585,1574431780,748490095,,-7.2,0.0,0.0
1574431780.8142476,7586,1574431780,812625885,,-7.2,0.0,0.0
1574431780.8620193,7587,1574431780,861056089,,-7.2,0.0,0.0
1574431780.9097352,7588,1574431780,909075975,,-7.2,0.0,0.0
1574431780.9579701,7589,1574431780,956701993,,-7.2,0.0,0.0
1574431781.0059814,7590,1574431781,5177021,,-7.2,0.0,0.0
1574431781.054029,7591,1574431781,53021907,,-7.2,0.0,0.0
1574431781.1072018,7592,1574431781,101516962,,-7.2,0.0,0.0
1574431781.1499662,7593,1574431781,149197101,,-7.2,0.0,0.0
1574431781.2134364,7594,1574431781,212914943,,-7.2,0.0,0.0
1574431781.2615023,7595,1574431781,260727882,,-7.2,0.0,0.0
1574431781.3095803,7596,1574431781,308847904,,-7.2,0.0,0.0
1574431781.3578646,7597,1574431781,356870889,,-7.2,0.0,0.0
1574431781.405519,7598,1574431781,404799938,,-7.2,0.0,0.0
1574431781.4541457,7599,1574431781,452963113,,-7.2,0.0,0.0
1574431781.5017545,7600,1574431781,501135110,,-7.2,0.0,0.0
1574431781.565497,7601,1574431781,564816951,,-7.2,0.0,0.0
1574431781.613933,7602,1574431781,612994909,,-7.2,0.0,0.0
1574431781.662225,7603,1574431781,661151885,,-7.2,0.0,0.0
1574431781.7100198,7604,1574431781,709136962,,-7.2,0.0,0.0
1574431781.758493,7605,1574431781,757028102,,-7.2,0.0,0.0
1574431781.8069232,7606,1574431781,805429935,,-7.2,0.0,0.0
1574431781.8537297,7607,1574431781,853187084,,-7.2,0.0,0.0
1574431781.9018838,7608,1574431781,901110887,,-7.2,0.0,0.0
1574431781.9684038,7609,1574431781,964976072,,-7.2,0.0,0.0
1574431782.0143347,7610,1574431782,13325929,,-7.2,0.0,0.0
1574431782.0614846,7611,1574431782,61022043,,-7.2,0.0,0.0
1574431782.1102164,7612,1574431782,109246015,,-7.2,0.0,0.0
1574431782.1583958,7613,1574431782,157244920,,-7.2,0.0,0.0
1574431782.2058096,7614,1574431782,205394029,,-7.2,0.0,0.0
1574431782.2539494,7615,1574431782,253478050,,-7.2,1.404,0.0
1574431782.3184087,7616,1574431782,317878961,,-7.2,0.0,0.0
1574431782.3660636,7617,1574431782,365602016,,-7.2,0.0,0.0
1574431782.4137125,7618,1574431782,413347005,,-7.2,0.0,0.0
1574431782.461619,7619,1574431782,461211919,,-7.2,0.0,0.0
1574431782.5100982,7620,1574431782,509196996,,-7.2,0.0,0.0
1574431782.5588026,7621,1574431782,557559967,,-7.2,0.0,0.0
1574431782.6064613,7622,1574431782,605561017,,-7.2,0.0,0.0
1574431782.671154,7623,1574431782,669318914,,-7.2,0.0,0.0
1574431782.71843,7624,1574431782,717786073,,-7.2,0.0,0.0
1574431782.7736454,7625,1574431782,765897989,,-7.2,0.0,0.0
1574431782.8141677,7626,1574431782,813523054,,-7.171428571428572,0.0,0.0
1574431782.8621492,7627,1574431782,861656904,,-7.171428571428572,0.0,0.0
1574431782.9117131,7628,1574431782,909755945,,-7.171428571428572,0.0,0.0
1574431782.958782,7629,1574431782,957693099,,-7.171428571428572,0.0,0.0
1574431783.0066566,7630,1574431783,5763053,,-7.171428571428572,0.0,0.0
1574431783.0698855,7631,1574431783,69432973,,-7.1571428571428575,0.0,0.0
1574431783.1201713,7632,1574431783,118052959,,-7.1571428571428575,0.0,0.0
1574431783.1661093,7633,1574431783,165641069,,-7.1571428571428575,0.0,0.0
1574431783.2141294,7634,1574431783,213735103,,-7.1571428571428575,0.0,0.0
1574431783.2623155,7635,1574431783,261704921,,-7.128571428571429,0.0,0.0
1574431783.3109403,7636,1574431783,309829950,,-6.985714285714286,0.0,0.0
1574431783.3587642,7637,1574431783,357831954,,-6.757142857142857,0.0,0.0
1574431783.4232914,7638,1574431783,422437906,,-6.542857142857143,0.0,0.0
1574431783.4705412,7639,1574431783,469820022,,-6.3428571428571425,0.0,0.0
1574431783.5187693,7640,1574431783,518001079,,-6.285714285714286,0.0,0.0
1574431783.56688,7641,1574431783,565856933,,-6.285714285714286,0.0,0.0
1574431783.615216,7642,1574431783,614151000,,-6.285714285714286,0.0,0.0
1574431783.6625674,7643,1574431783,661885976,,-6.285714285714286,0.0,0.0
1574431783.710666,7644,1574431783,709996938,,-6.257142857142857,0.0,0.0
1574431783.7588387,7645,1574431783,758002042,,-6.257142857142857,0.0,0.0
1574431783.8230429,7646,1574431783,822297096,,-6.257142857142857,0.0,0.0
1574431783.870444,7647,1574431783,869910001,,-6.257142857142857,0.0,0.0
1574431783.9188511,7648,1574431783,917970895,,-6.257142857142857,0.0,0.0
1574431783.9671957,7649,1574431783,965984106,,-6.257142857142857,0.0,0.0
1574431784.0152588,7650,1574431784,14107942,,-6.257142857142857,0.0,0.0
1574431784.0621462,7651,1574431784,61850070,,-6.257142857142857,0.0,0.0
1574431784.110685,7652,1574431784,110188007,,-6.242857142857143,0.0,0.0
1574431784.1747434,7653,1574431784,174007892,,-6.214285714285714,0.0,0.0
1574431784.2231288,7654,1574431784,222207069,,-6.2,0.0,0.0
1574431784.2702403,7655,1574431784,269872903,,-6.2,0.0,0.0
1574431784.3188694,7656,1574431784,318150997,,-6.2,0.0,0.0
1574431784.3673346,7657,1574431784,366096019,,-6.2,0.0,0.0
1574431784.4162087,7658,1574431784,414695024,,-6.2,0.0,0.0
1574431784.463866,7659,1574431784,462739944,,-6.2,0.0,0.0
1574431784.5274937,7660,1574431784,526129007,,-6.2,0.0,0.0
1574431784.575236,7661,1574431784,574400901,,-6.2,0.0,0.0
1574431784.6237037,7662,1574431784,622383117,,-6.2,0.0,0.0
1574431784.6717074,7663,1574431784,670593023,,-6.2,0.0,0.0
1574431784.7193923,7664,1574431784,718683004,,-6.2,0.0,0.0
1574431784.7669582,7665,1574431784,766288995,,-6.2,0.0,0.0
1574431784.8151069,7666,1574431784,814459085,,-6.2,0.0,0.0
1574431784.8630855,7667,1574431784,862443923,,-6.2,0.0,0.0
1574431784.9275746,7668,1574431784,926749944,,-6.2,0.0,0.0
1574431784.975017,7669,1574431784,974343061,,-6.2,0.0,0.0
1574431785.0234845,7670,1574431785,22660970,,-6.2,0.0,0.0
1574431785.0709133,7671,1574431785,70306062,,-6.171428571428572,0.0,0.0
1574431785.1204276,7672,1574431785,118643999,,-6.171428571428572,0.0,0.0
1574431785.166927,7673,1574431785,166264057,,-6.171428571428572,0.0,0.0
1574431785.2152722,7674,1574431785,214524030,,-6.171428571428572,0.0,0.0
1574431785.2791111,7675,1574431785,278343915,,-6.171428571428572,0.0,0.0
1574431785.3271327,7676,1574431785,326569080,,-6.1571428571428575,0.0,0.0
1574431785.3751643,7677,1574431785,374356985,,-6.1571428571428575,0.0,0.0
1574431785.4240897,7678,1574431785,422844886,,-6.128571428571429,0.0,0.0
1574431785.4716747,7679,1574431785,470621109,,-6.114285714285714,0.0,0.0
1574431785.518782,7680,1574431785,518457889,,-6.085714285714285,0.702,0.0
1574431785.5669508,7681,1574431785,566428899,,-6.071428571428571,0.702,0.0
1574431785.6310432,7682,1574431785,630558967,,-6.042857142857143,0.0,0.0
1574431785.6792948,7683,1574431785,678569078,,-6.0285714285714285,0.702,0.0
1574431785.7281587,7684,1574431785,727083921,,-6.0285714285714285,0.702,0.0
1574431785.7753177,7685,1574431785,774591922,,-6.0285714285714285,1.404,0.0
1574431785.82345,7686,1574431785,822913885,,-6.0285714285714285,0.0,0.0
1574431785.871333,7687,1574431785,870744943,,-6.0,2.106,0.0
1574431785.9204838,7688,1574431785,919071912,,-5.9714285714285715,1.404,0.0
1574431785.9672377,7689,1574431785,966655969,,-5.885714285714286,2.106,0.0
1574431786.031832,7690,1574431786,31056880,,-5.757142857142857,2.106,0.0
1574431786.079532,7691,1574431786,78665971,,-5.285714285714286,2.106,0.0
1574431786.1282222,7692,1574431786,127298116,,-4.6,3.51,0.0
1574431786.175142,7693,1574431786,174721002,,-3.7285714285714286,3.51,0.0
1574431786.223973,7694,1574431786,223129034,,-2.857142857142857,4.212,0.0
1574431786.27134,7695,1574431786,270883083,,-2.4,4.212,0.0
1574431786.3203144,7696,1574431786,319319009,,-2.2714285714285714,4.212,0.0
1574431786.383734,7697,1574431786,382846117,,-2.2714285714285714,5.616,0.0
1574431786.4321418,7698,1574431786,431150913,,-2.242857142857143,5.616,0.0
1574431786.479196,7699,1574431786,478910923,,-2.242857142857143,7.02,0.0
1574431786.5309608,7700,1574431786,527836084,,-2.242857142857143,5.616,0.0
1574431786.5755293,7701,1574431786,574985027,,-2.242857142857143,7.722,0.0
1574431786.624189,7702,1574431786,623256921,,-2.242857142857143,7.722,0.0
1574431786.6718307,7703,1574431786,670967102,,-2.242857142857143,8.424,0.0
1574431786.7204978,7704,1574431786,719290971,,-2.242857142857143,8.424,0.0
1574431786.7840335,7705,1574431786,783328056,,-2.242857142857143,9.828,0.0
1574431786.8359451,7706,1574431786,831140041,,-2.242857142857143,9.126,0.0
1574431786.8795457,7707,1574431786,879049062,,-2.242857142857143,10.53,0.0
1574431786.92876,7708,1574431786,927381038,,-2.242857142857143,9.828,0.0
1574431786.9753833,7709,1574431786,975105047,,-2.2857142857142856,11.232,0.0
1574431787.0241055,7710,1574431787,23541927,,-2.5714285714285716,10.53,0.0
1574431787.071749,7711,1574431787,71163892,,-3.2714285714285714,11.934,0.0
1574431787.1392434,7712,1574431787,135545015,,-3.7714285714285714,11.232,0.0
1574431787.1837933,7713,1574431787,183195114,,-3.8142857142857145,12.636,0.0
1574431787.2323825,7714,1574431787,231529951,,-3.8142857142857145,12.636,0.0
1574431787.279574,7715,1574431787,279234886,,-3.8142857142857145,14.04,0.0
1574431787.3290155,7716,1574431787,328099966,,-3.8142857142857145,13.338,0.0
1574431787.3761365,7717,1574431787,375483036,,-3.8142857142857145,14.04,0.0
1574431787.424469,7718,1574431787,423512935,,-3.7714285714285714,14.742,0.0
1574431787.4723144,7719,1574431787,471328973,,-3.7142857142857144,14.04,0.0
1574431787.537332,7720,1574431787,535738945,,-3.6857142857142855,15.444,0.0
1574431787.5843174,7721,1574431787,583475112,,-3.6857142857142855,15.444,0.0
1574431787.632184,7722,1574431787,631685972,,-3.6857142857142855,16.848,0.0
1574431787.6803863,7723,1574431787,679692983,,-3.6857142857142855,15.444,0.0
1574431787.7296143,7724,1574431787,727890014,,-3.6857142857142855,16.848,0.0
1574431787.7763927,7725,1574431787,775561094,,-3.6857142857142855,17.55,0.0
1574431787.824704,7726,1574431787,823913097,,-3.6857142857142855,17.55,0.0
1574431787.8891532,7727,1574431787,887823104,,-3.6857142857142855,17.55,0.0
1574431787.9367871,7728,1574431787,936064004,,-3.6857142857142855,18.252,0.0
1574431787.9842165,7729,1574431787,983589887,,-3.6714285714285713,18.954,0.0
1574431788.0328436,7730,1574431788,31924009,,-3.4714285714285715,18.954,0.0
1574431788.0804753,7731,1574431788,79662084,,-3.2285714285714286,18.954,0.0
1574431788.1291509,7732,1574431788,128618955,,-3.2142857142857144,19.656,0.0
1574431788.176125,7733,1574431788,175743103,,-3.2142857142857144,19.656,0.0
1574431788.240126,7734,1574431788,239631891,,-3.2142857142857144,21.06,0.0
1574431788.288687,7735,1574431788,287781000,,-3.2142857142857144,21.06,0.0
1574431788.3368516,7736,1574431788,336199045,,-3.2142857142857144,21.06,0.0
1574431788.3843114,7737,1574431788,383879899,,-3.2142857142857144,21.06,0.0
1574431788.4330077,7738,1574431788,432085037,,-3.2142857142857144,21.762,0.0
1574431788.4803905,7739,1574431788,479794979,,-3.2142857142857144,21.762,0.0
1574431788.5298617,7740,1574431788,528821945,,-3.2142857142857144,22.464,0.0
1574431788.577734,7741,1574431788,576082944,,-3.2142857142857144,23.166,0.0
1574431788.6411932,7742,1574431788,640396118,,-3.2142857142857144,23.166,0.0
1574431788.6889946,7743,1574431788,688128948,,-3.2142857142857144,22.464,0.0
1574431788.73753,7744,1574431788,736210107,,-3.2285714285714286,23.868,0.0
1574431788.7849867,7745,1574431788,784113883,,-3.2285714285714286,25.272,0.0
1574431788.833333,7746,1574431788,832201004,,-3.4,23.868,0.0
1574431788.8810344,7747,1574431788,880038022,,-3.5142857142857142,23.868,0.0
1574431788.929595,7748,1574431788,928349018,,-3.5285714285714285,25.272,0.0
1574431788.993592,7749,1574431788,992161035,,-3.6857142857142855,25.272,0.0
1574431789.0407438,7750,1574431789,40285110,,-3.857142857142857,25.272,0.0
1574431789.0890841,7751,1574431789,88318109,,-3.857142857142857,25.272,0.0
1574431789.137545,7752,1574431789,136290073,,-3.9857142857142858,26.676,0.0
1574431789.1848636,7753,1574431789,184354066,,-4.514285714285714,26.676,0.0
1574431789.2328296,7754,1574431789,232356071,,-4.885714285714286,25.974,0.0
1574431789.281049,7755,1574431789,280292034,,-4.9714285714285715,27.378,0.0
1574431789.3290915,7756,1574431789,328603029,,-5.0,26.676,0.0
1574431789.3931878,7757,1574431789,392472028,,-5.0,27.378,0.0
1574431789.441692,7758,1574431789,440406084,,-5.0,27.378,0.0
1574431789.4890373,7759,1574431789,488277912,,-5.0,28.08,0.0
1574431789.5376499,7760,1574431789,536603927,,-5.0,28.08,0.0
1574431789.584959,7761,1574431789,584496974,,-5.042857142857143,28.782,0.0
1574431789.633777,7762,1574431789,632890939,,-5.128571428571429,28.782,0.0
1574431789.6815252,7763,1574431789,680614948,,-5.171428571428572,29.484,0.0
1574431789.7448921,7764,1574431789,744421958,,-5.328571428571428,28.782,0.0
1574431789.7934034,7765,1574431789,792674064,,-5.885714285714286,30.186,0.0
1574431789.8420289,7766,1574431789,840662956,,-6.414285714285715,29.484,0.0
1574431789.88923,7767,1574431789,888632059,,-6.5,30.186,0.0
1574431789.937831,7768,1574431789,936698913,,-6.5,30.186,0.0
1574431789.9855814,7769,1574431789,984715938,,-6.5,30.888,0.0
1574431790.0335987,7770,1574431790,32654047,,-6.485714285714286,30.888,0.0
1574431790.080944,7771,1574431790,80529928,,-6.485714285714286,30.888,0.0
1574431790.1452515,7772,1574431790,144701004,,-6.485714285714286,30.888,0.0
1574431790.1936235,7773,1574431790,192908048,,-6.485714285714286,31.59,0.0
1574431790.2413118,7774,1574431790,240803003,,-6.442857142857143,32.292,0.0
1574431790.290292,7775,1574431790,288964986,,-6.442857142857143,31.59,0.0
1574431790.337784,7776,1574431790,337147951,,-6.442857142857143,32.292,0.0
1574431790.3852184,7777,1574431790,384632110,,-6.371428571428571,32.994,0.0
1574431790.4356377,7778,1574431790,434221029,,-6.3428571428571425,32.292,0.0
1574431790.4982078,7779,1574431790,497234106,,-6.3428571428571425,32.994,0.0
1574431790.5454936,7780,1574431790,544946908,,-6.3428571428571425,32.994,0.0
1574431790.5942838,7781,1574431790,592982053,,-6.3428571428571425,33.696,0.0
1574431790.64172,7782,1574431790,641084909,,-6.3428571428571425,33.696,0.0
1574431790.6897495,7783,1574431790,689095020,,-6.3428571428571425,33.696,0.0
1574431790.7382896,7784,1574431790,737515926,,-6.328571428571428,35.1,0.0
1574431790.7862253,7785,1574431790,785048961,,-6.328571428571428,33.696,0.0
1574431790.8341894,7786,1574431790,833113908,,-6.328571428571428,35.1,0.0
1574431790.898107,7787,1574431790,897023916,,-6.328571428571428,35.1,0.0
1574431790.9455798,7788,1574431790,945012092,,-6.328571428571428,34.398,0.0
1574431790.994297,7789,1574431790,993117094,,-6.328571428571428,35.1,0.0
1574431791.042117,7790,1574431791,41192054,,-6.2,35.802,0.0
1574431791.0895536,7791,1574431791,89004993,,-6.0,35.1,0.0
1574431791.1376987,7792,1574431791,137105941,,-5.828571428571428,36.504,0.0
1574431791.1855137,7793,1574431791,184957981,,-5.214285714285714,36.504,0.0
1574431791.2504172,7794,1574431791,249226093,,-4.228571428571429,35.1,0.0
1574431791.298546,7795,1574431791,297452926,,-3.3,36.504,0.0
1574431791.345956,7796,1574431791,345233917,,-2.4714285714285715,37.908,0.0
1574431791.3934805,7797,1574431791,393045902,,-1.8714285714285714,36.504,0.0
1574431791.4425757,7798,1574431791,441746950,,-1.8714285714285714,37.908,0.0
1574431791.4899504,7799,1574431791,489500045,,-1.8714285714285714,36.504,0.0
1574431791.5384462,7800,1574431791,537370920,,-1.8714285714285714,37.908,0.0
1574431791.6020308,7801,1574431791,601203918,,-1.8714285714285714,37.908,0.0
1574431791.6501296,7802,1574431791,649554967,,-1.8714285714285714,37.908,0.0
1574431791.698796,7803,1574431791,697458028,,-1.8714285714285714,37.908,0.0
1574431791.747546,7804,1574431791,745764017,,-1.9,37.908,0.0
1574431791.795061,7805,1574431791,793688058,,-1.9,39.312,0.0
1574431791.842328,7806,1574431791,841759920,,-1.9,37.908,0.0
1574431791.8898287,7807,1574431791,889225959,,-1.9,39.312,0.0
1574431791.9386113,7808,1574431791,937760114,,-1.9,39.312,0.0
1574431792.0021133,7809,1574431792,1660108,,-1.9428571428571428,39.312,0.0
1574431792.050658,7810,1574431792,49683094,,-2.0142857142857142,39.312,0.0
1574431792.0993843,7811,1574431792,97906112,,-2.0285714285714285,40.716,0.0
1574431792.146464,7812,1574431792,145863056,,-2.1142857142857143,39.312,0.0
1574431792.1950152,7813,1574431792,193855047,,-2.2285714285714286,40.716,0.0
1574431792.2430425,7814,1574431792,241918087,,-2.2714285714285714,39.312,0.0
1574431792.2901115,7815,1574431792,289638042,,-2.357142857142857,40.716,0.0
1574431792.355247,7816,1574431792,353976964,,-2.4714285714285715,40.716,0.0
1574431792.402163,7817,1574431792,401735067,,-2.4714285714285715,40.716,0.0
1574431792.4511068,7818,1574431792,450289964,,-2.4857142857142858,40.716,0.0
1574431792.5002792,7819,1574431792,497802019,,-2.5285714285714285,42.12,0.0
1574431792.5487387,7820,1574431792,546073913,,-2.5714285714285716,40.716,0.0
1574431792.5940247,7821,1574431792,593713998,,-2.742857142857143,42.12,0.0
1574431792.6433454,7822,1574431792,642132043,,-3.1,40.716,0.0
1574431792.7069857,7823,1574431792,705996036,,-3.4285714285714284,42.12,0.0
1574431792.7553194,7824,1574431792,753973007,,-3.857142857142857,42.12,0.0
1574431792.8024757,7825,1574431792,801846981,,-4.257142857142857,42.12,0.0
1574431792.8506646,7826,1574431792,850027084,,-4.828571428571428,42.12,0.0
1574431792.898571,7827,1574431792,897881984,,-5.242857142857143,43.524,0.0
1574431792.9470751,7828,1574431792,946300029,,-5.514285714285714,42.12,0.0
1574431792.9948928,7829,1574431792,994143962,,-5.628571428571429,43.524,0.0
1574431793.042725,7830,1574431793,42036056,,-5.628571428571429,42.12,0.0
1574431793.1063502,7831,1574431793,105827093,,-5.628571428571429,43.524,0.0
1574431793.1547318,7832,1574431793,154083013,,-5.628571428571429,43.524,0.0
1574431793.2024803,7833,1574431793,201963901,,-5.628571428571429,43.524,0.0
1574431793.2517834,7834,1574431793,250416040,,-5.614285714285714,43.524,0.0
1574431793.2995272,7835,1574431793,298306941,,-5.614285714285714,43.524,0.0
1574431793.3470843,7836,1574431793,346564054,,-5.542857142857143,43.524,0.0
1574431793.3949342,7837,1574431793,394268989,,-5.5,44.928,0.0
1574431793.4591782,7838,1574431793,458374023,,-5.457142857142857,43.524,0.0
1574431793.5074458,7839,1574431793,506207942,,-5.428571428571429,44.226,0.0
1574431793.5549262,7840,1574431793,554202079,,-5.428571428571429,44.928,0.0
1574431793.603296,7841,1574431793,602354049,,-5.428571428571429,44.226,0.0
1574431793.6510262,7842,1574431793,650317907,,-5.428571428571429,44.928,0.0
1574431793.699224,7843,1574431793,698297977,,-5.428571428571429,44.928,0.0
1574431793.7481701,7844,1574431793,746876001,,-5.428571428571429,44.928,0.0
1574431793.8114927,7845,1574431793,810286045,,-5.428571428571429,45.63,0.0
1574431793.8600986,7846,1574431793,858299016,,-5.428571428571429,44.928,0.0
1574431793.907449,7847,1574431793,906383037,,-5.457142857142857,45.63,0.0
1574431793.9554095,7848,1574431793,954526901,,-5.457142857142857,45.63,0.0
1574431794.0029612,7849,1574431794,2403974,,-5.4714285714285715,45.63,0.0
1574431794.0510526,7850,1574431794,50537109,,-5.4714285714285715,45.63,0.0
1574431794.099422,7851,1574431794,98345994,,-5.4714285714285715,46.332,0.0
1574431794.1480873,7852,1574431794,146651029,,-5.4714285714285715,45.63,0.0
1574431794.2119713,7853,1574431794,210865974,,-5.4714285714285715,46.332,0.0
1574431794.259266,7854,1574431794,258630037,,-5.4714285714285715,46.332,0.0
1574431794.3076708,7855,1574431794,306735038,,-5.4714285714285715,46.332,0.0
1574431794.3558576,7856,1574431794,354693889,,-5.4714285714285715,46.332,0.0
1574431794.4042099,7857,1574431794,402954101,,-5.4714285714285715,47.034,0.0
1574431794.4519548,7858,1574431794,450758934,,-5.4714285714285715,46.332,0.0
1574431794.4992707,7859,1574431794,498498916,,-5.4714285714285715,47.034,0.0
1574431794.562976,7860,1574431794,562637090,,-5.4714285714285715,47.034,0.0
1574431794.6117065,7861,1574431794,610848903,,-5.4714285714285715,47.034,0.0
1574431794.6597283,7862,1574431794,658729076,,-5.514285714285714,47.034,0.0
1574431794.7082329,7863,1574431794,706959009,,-5.628571428571429,47.034,0.0
1574431794.7560909,7864,1574431794,754878997,,-5.628571428571429,47.736,0.0
1574431794.8036444,7865,1574431794,802889108,,-5.628571428571429,47.736,0.0
1574431794.8517222,7866,1574431794,850919961,,-5.6571428571428575,47.034,0.0
1574431794.9151762,7867,1574431794,914601087,,-5.7,47.736,0.0
1574431794.9634862,7868,1574431794,962826967,,-5.785714285714286,47.736,0.0
1574431795.0116687,7869,1574431795,10962009,,-5.914285714285715,47.736,0.0
1574431795.059277,7870,1574431795,58700084,,-6.085714285714285,47.736,0.0
1574431795.1084602,7871,1574431795,107199907,,-6.171428571428572,48.438,0.0
1574431795.1562583,7872,1574431795,154994010,,-6.414285714285715,47.736,0.0
1574431795.2035255,7873,1574431795,202977895,,-6.6571428571428575,48.438,0.0
1574431795.2522945,7874,1574431795,251008987,,-6.857142857142857,47.736,0.0
1574431795.3156884,7875,1574431795,314945936,,-6.957142857142857,49.14,0.0
1574431795.3634398,7876,1574431795,362864017,,-6.957142857142857,48.438,0.0
1574431795.4114528,7877,1574431795,410840988,,-6.957142857142857,48.438,0.0
1574431795.4595125,7878,1574431795,458908081,,-6.985714285714286,47.736,0.0
1574431795.5079577,7879,1574431795,507097959,,-7.0285714285714285,49.14,0.0
1574431795.5561833,7880,1574431795,555253982,,-7.042857142857143,49.14,0.0
1574431795.6042664,7881,1574431795,603363037,,-7.085714285714285,48.438,0.0
1574431795.6672897,7882,1574431795,666928052,,-7.1571428571428575,48.438,0.0
1574431795.7157807,7883,1574431795,715276956,,-7.228571428571429,49.14,0.0
1574431795.7644165,7884,1574431795,763360023,,-7.314285714285714,49.14,0.0
1574431795.8117418,7885,1574431795,811248064,,-7.314285714285714,49.14,0.0
1574431795.860335,7886,1574431795,859205007,,-7.314285714285714,49.14,0.0
1574431795.907699,7887,1574431795,907212018,,-7.328571428571428,49.14,0.0
1574431795.9558063,7888,1574431795,955111026,,-7.328571428571428,49.14,0.0
1574431796.004219,7889,1574431796,3350019,,-7.328571428571428,49.14,0.0
1574431796.0682735,7890,1574431796,67133903,,-7.328571428571428,50.544,0.0
1574431796.1158824,7891,1574431796,115312099,,-7.4,48.438,0.0
1574431796.1637611,7892,1574431796,163233041,,-7.485714285714286,49.842,0.0
1574431796.211938,7893,1574431796,211467981,,-7.614285714285714,49.14,0.0
1574431796.2596095,7894,1574431796,259267091,,-7.814285714285714,49.842,0.0
1574431796.3087199,7895,1574431796,307584047,,-8.185714285714285,49.842,0.0
1574431796.355933,7896,1574431796,355393886,,-8.471428571428572,49.842,0.0
1574431796.4205778,7897,1574431796,419665098,,-8.7,49.842,0.0
1574431796.470742,7898,1574431796,467277050,,-8.814285714285715,49.842,0.0
1574431796.5157545,7899,1574431796,515404939,,-8.857142857142858,49.842,0.0
1574431796.564819,7900,1574431796,563746929,,-8.857142857142858,49.842,0.0
1574431796.6123466,7901,1574431796,611486911,,-8.857142857142858,50.544,0.0
1574431796.6605277,7902,1574431796,659368991,,-8.857142857142858,49.14,0.0
1574431796.709662,7903,1574431796,708164930,,-8.857142857142858,50.544,0.0
1574431796.7718918,7904,1574431796,771389961,,-8.857142857142858,50.544,0.0
1574431796.8210049,7905,1574431796,819641113,,-8.857142857142858,50.544,0.0
1574431796.8685243,7906,1574431796,867575883,,-8.857142857142858,50.544,0.0
1574431796.9161072,7907,1574431796,915568113,,-8.857142857142858,49.842,0.0
1574431796.9639156,7908,1574431796,963524103,,-8.857142857142858,50.544,0.0
1574431797.0125349,7909,1574431797,11979103,,-8.857142857142858,49.842,0.0
1574431797.0602756,7910,1574431797,59523105,,-8.857142857142858,50.544,0.0
1574431797.1084878,7911,1574431797,107635021,,-8.857142857142858,50.544,0.0
1574431797.172926,7912,1574431797,171900987,,-8.885714285714286,50.544,0.0
1574431797.2210364,7913,1574431797,219885110,,-9.057142857142857,50.544,0.0
1574431797.268749,7914,1574431797,267817020,,-9.385714285714286,51.246,0.0
1574431797.3165061,7915,1574431797,315948963,,-9.757142857142858,50.544,0.0
1574431797.3646305,7916,1574431797,363744020,,-9.771428571428572,50.544,0.0
1574431797.412368,7917,1574431797,411931991,,-9.771428571428572,51.246,0.0
1574431797.4610033,7918,1574431797,459692955,,-9.771428571428572,50.544,0.0
1574431797.524527,7919,1574431797,523993968,,-9.771428571428572,51.246,0.0
1574431797.5730577,7920,1574431797,571890115,,-9.771428571428572,50.544,0.0
1574431797.6207333,7921,1574431797,619946002,,-9.771428571428572,50.544,0.0
1574431797.668496,7922,1574431797,667736053,,-9.771428571428572,51.948,0.0
1574431797.7167096,7923,1574431797,716056108,,-9.771428571428572,50.544,0.0
1574431797.7643878,7924,1574431797,763869047,,-9.771428571428572,51.246,0.0
1574431797.8126395,7925,1574431797,812045097,,-9.771428571428572,51.246,0.0
1574431797.8762956,7926,1574431797,875866889,,-9.771428571428572,50.544,0.0
1574431797.9246058,7927,1574431797,924144029,,-9.757142857142858,51.246,0.0
1574431797.972988,7928,1574431797,972018003,,-9.757142857142858,51.246,0.0
1574431798.0211303,7929,1574431798,20220041,,-9.757142857142858,50.544,0.0
1574431798.0684884,7930,1574431798,67923069,,-9.757142857142858,51.948,0.0
1574431798.1173203,7931,1574431798,116146087,,-9.685714285714285,51.246,0.0
1574431798.164674,7932,1574431798,163973093,,-9.685714285714285,51.246,0.0
1574431798.213635,7933,1574431798,212233066,,-9.67142857142857,51.246,0.0
1574431798.276951,7934,1574431798,276238918,,-9.67142857142857,51.948,0.0
1574431798.3253381,7935,1574431798,324408054,,-9.528571428571428,50.544,0.0
1574431798.3725195,7936,1574431798,372071981,,-9.385714285714286,51.948,0.0
1574431798.4212272,7937,1574431798,420314073,,-9.357142857142858,51.246,0.0
1574431798.4690695,7938,1574431798,468266010,,-9.357142857142858,51.246,0.0
1574431798.5174205,7939,1574431798,516686916,,-9.357142857142858,51.948,0.0
1574431798.565545,7940,1574431798,564214944,,-9.314285714285715,51.948,0.0
1574431798.6294858,7941,1574431798,628684997,,-9.314285714285715,51.246,0.0
1574431798.6775694,7942,1574431798,676565885,,-9.3,51.246,0.0
1574431798.7261386,7943,1574431798,724598884,,-9.157142857142857,51.948,0.0
1574431798.7728353,7944,1574431798,772322893,,-8.814285714285715,51.246,0.0
1574431798.8217247,7945,1574431798,820574045,,-8.571428571428571,52.65,0.0
1574431798.8692298,7946,1574431798,868283033,,-8.32857142857143,50.544,0.0
1574431798.9178686,7947,1574431798,916662931,,-8.271428571428572,51.948,0.0
1574431798.9808278,7948,1574431798,980218887,,-8.242857142857142,51.948,0.0
1574431799.0299425,7949,1574431799,28630018,,-8.242857142857142,51.948,0.0
1574431799.0770192,7950,1574431799,76339006,,-8.242857142857142,51.948,0.0
1574431799.1254513,7951,1574431799,124706029,,-8.271428571428572,51.948,0.0
1574431799.173095,7952,1574431799,172399997,,-8.271428571428572,51.948,0.0
1574431799.2216697,7953,1574431799,220696926,,-8.271428571428572,51.948,0.0
1574431799.269518,7954,1574431799,268528938,,-8.271428571428572,51.948,0.0
1574431799.317335,7955,1574431799,316715002,,-8.271428571428572,51.246,0.0
1574431799.3809645,7956,1574431799,380537033,,-8.271428571428572,52.65,0.0
1574431799.4303563,7957,1574431799,429132938,,-8.271428571428572,51.948,0.0
1574431799.478124,7958,1574431799,477117061,,-8.271428571428572,51.948,0.0
1574431799.5257418,7959,1574431799,524972915,,-8.271428571428572,51.948,0.0
1574431799.57396,7960,1574431799,572715044,,-8.271428571428572,51.948,0.0
1574431799.6215491,7961,1574431799,620879888,,-8.271428571428572,51.948,0.0
1574431799.6693265,7962,1574431799,668704986,,-8.271428571428572,52.65,0.0
1574431799.7353373,7963,1574431799,732917070,,-8.271428571428572,51.948,0.0
1574431799.7812252,7964,1574431799,780657052,,-8.271428571428572,0.0,0.0
1574431799.8300211,7965,1574431799,828964948,,-8.271428571428572,52.65,0.0
1574431799.8786047,7966,1574431799,876908063,,-8.271428571428572,51.246,0.0
1574431799.925503,7967,1574431799,924917936,,-8.271428571428572,53.352,0.0
1574431799.9736516,7968,1574431799,972780942,,-8.271428571428572,51.948,0.0
1574431800.0216703,7969,1574431800,21102905,,-8.271428571428572,51.948,0.0
1574431800.0856192,7970,1574431800,84652900,,-8.271428571428572,51.948,0.0
1574431800.1341822,7971,1574431800,133111000,,-8.271428571428572,53.352,0.0
1574431800.1819818,7972,1574431800,180943012,,-8.271428571428572,51.948,0.0
1574431800.2299957,7973,1574431800,229079008,,-8.185714285714285,51.948,0.0
1574431800.2777848,7974,1574431800,276922941,,-7.728571428571429,51.948,0.0
1574431800.3266082,7975,1574431800,325176000,,-7.2,53.352,0.0
1574431800.3740184,7976,1574431800,373119115,,-6.957142857142857,51.948,0.0
1574431800.4224129,7977,1574431800,421356916,,-6.957142857142857,51.948,0.0
1574431800.4859135,7978,1574431800,485367059,,-6.957142857142857,52.65,0.0
1574431800.5342064,7979,1574431800,533225059,,-6.957142857142857,52.65,0.0
1574431800.5820913,7980,1574431800,581094980,,-6.957142857142857,0.0,0.0
1574431800.6298554,7981,1574431800,629220962,,-6.957142857142857,52.65,0.0
1574431800.678101,7982,1574431800,677115917,,-6.957142857142857,52.65,0.0
1574431800.7258906,7983,1574431800,725359916,,-6.985714285714286,51.948,0.0
1574431800.7738042,7984,1574431800,773005962,,-6.985714285714286,53.352,0.0
1574431800.8378701,7985,1574431800,837321043,,-6.985714285714286,51.948,0.0
1574431800.8860052,7986,1574431800,885390043,,-7.0,52.65,0.0
1574431800.9345298,7987,1574431800,933446884,,-7.0285714285714285,52.65,0.0
1574431800.9819462,7988,1574431800,981216907,,-7.071428571428571,51.948,0.0
1574431801.0301852,7989,1574431801,29483079,,-7.128571428571429,53.352,0.0
1574431801.077629,7990,1574431801,77227115,,-7.271428571428571,51.948,0.0
1574431801.126825,7991,1574431801,125600099,,-7.314285714285714,53.352,0.0
1574431801.1739714,7992,1574431801,173207044,,-7.314285714285714,51.948,0.0
1574431801.238324,7993,1574431801,237462997,,-7.314285714285714,52.65,0.0
1574431801.2870488,7994,1574431801,285657882,,-7.314285714285714,52.65,0.0
1574431801.334222,7995,1574431801,333657979,,-7.328571428571428,53.352,0.0
1574431801.3823173,7996,1574431801,381691932,,-7.5285714285714285,51.948,0.0
1574431801.431049,7997,1574431801,429913997,,-7.614285714285714,52.65,0.0
1574431801.4779,7998,1574431801,477363109,,-7.685714285714286,52.65,0.0
1574431801.527146,7999,1574431801,525796890,,-7.685714285714286,53.352,0.0
1574431801.5903304,8000,1574431801,589621067,,-7.742857142857143,51.948,0.0
1574431801.638625,8001,1574431801,637749910,,-7.771428571428571,52.65,0.0
1574431801.6870656,8002,1574431801,685899019,,-7.785714285714286,52.65,0.0
1574431801.734673,8003,1574431801,733922004,,-7.814285714285714,53.352,0.0
1574431801.7826064,8004,1574431801,781645059,,-7.9,51.948,0.0
1574431801.8322086,8005,1574431801,829901933,,-8.185714285714285,52.65,0.0
1574431801.8785582,8006,1574431801,877621889,,-8.528571428571428,53.352,0.0
1574431801.9425669,8007,1574431801,941513061,,-8.771428571428572,52.65,0.0
1574431801.9909074,8008,1574431801,989909887,,-8.814285714285715,52.65,0.0
1574431802.039304,8009,1574431802,38567066,,-8.814285714285715,52.65,0.0
1574431802.0862322,8010,1574431802,85653066,,-8.814285714285715,52.65,0.0
1574431802.1349456,8011,1574431802,134064912,,-8.814285714285715,53.352,0.0
1574431802.1828778,8012,1574431802,181767940,,-8.814285714285715,53.352,0.0
1574431802.2306702,8013,1574431802,230000972,,-8.814285714285715,51.948,0.0
1574431802.2790413,8014,1574431802,278002023,,-8.814285714285715,53.352,0.0
1574431802.3425193,8015,1574431802,342000961,,-8.814285714285715,51.948,0.0
1574431802.3902998,8016,1574431802,389806032,,-8.842857142857143,53.352,0.0
1574431802.4389286,8017,1574431802,438492059,,-8.842857142857143,53.352,0.0
1574431802.4865072,8018,1574431802,485899925,,-8.842857142857143,53.352,0.0
1574431802.534807,8019,1574431802,534174919,,-8.842857142857143,51.948,0.0
1574431802.5827987,8020,1574431802,581866025,,-8.842857142857143,53.352,0.0
1574431802.630773,8021,1574431802,630018949,,-8.842857142857143,52.65,0.0
1574431802.6957939,8022,1574431802,694434881,,-8.857142857142858,52.65,0.0
1574431802.7427661,8023,1574431802,742058992,,-8.885714285714286,53.352,0.0
1574431802.7907882,8024,1574431802,790119886,,-8.885714285714286,53.352,0.0
1574431802.8389633,8025,1574431802,838188886,,-8.885714285714286,53.352,0.0
1574431802.886721,8026,1574431802,885971069,,-8.885714285714286,51.948,0.0
1574431802.9351363,8027,1574431802,934046983,,-8.885714285714286,53.352,0.0
1574431802.9834197,8028,1574431802,982112884,,-8.885714285714286,52.65,0.0
1574431803.0470219,8029,1574431803,45948982,,-8.885714285714286,53.352,0.0
1574431803.0948324,8030,1574431803,94086885,,-8.885714285714286,52.65,0.0
1574431803.1432247,8031,1574431803,142338991,,-8.885714285714286,53.352,0.0
1574431803.1909926,8032,1574431803,190192937,,-8.885714285714286,53.352,0.0
1574431803.2387652,8033,1574431803,238328933,,-8.885714285714286,52.65,0.0
1574431803.2882624,8034,1574431803,286117076,,-8.885714285714286,53.352,0.0
1574431803.335422,8035,1574431803,334347009,,-8.885714285714286,53.352,0.0
1574431803.3825657,8036,1574431803,382153987,,-8.885714285714286,51.948,0.0
1574431803.447545,8037,1574431803,446424007,,-8.857142857142858,53.352,0.0
1574431803.494912,8038,1574431803,494246959,,-8.857142857142858,53.352,0.0
1574431803.5430343,8039,1574431803,542475938,,-8.857142857142858,53.352,0.0
1574431803.59104,8040,1574431803,590369939,,-8.857142857142858,52.65,0.0
1574431803.6393769,8041,1574431803,638426065,,-8.857142857142858,53.352,0.0
1574431803.6872509,8042,1574431803,686387062,,-8.857142857142858,52.65,0.0
1574431803.7351346,8043,1574431803,734637975,,-8.857142857142858,53.352,0.0
1574431803.7993672,8044,1574431803,798871040,,-8.857142857142858,53.352,0.0
1574431803.8480334,8045,1574431803,846853017,,-8.857142857142858,53.352,0.0
1574431803.8949597,8046,1574431803,894536972,,-8.857142857142858,53.352,0.0
1574431803.9433157,8047,1574431803,942673921,,-8.857142857142858,51.948,0.0
1574431803.9919903,8048,1574431803,990705966,,-8.885714285714286,53.352,0.0
1574431804.0390565,8049,1574431804,38579940,,-8.885714285714286,53.352,0.0
1574431804.0875814,8050,1574431804,86477041,,-8.885714285714286,53.352,0.0
1574431804.1357224,8051,1574431804,134711980,,-8.885714285714286,53.352,0.0
1574431804.2003672,8052,1574431804,198853015,,-8.885714285714286,53.352,0.0
1574431804.248543,8053,1574431804,247112989,,-8.885714285714286,53.352,0.0
1574431804.295481,8054,1574431804,294898986,,-8.885714285714286,53.352,0.0
1574431804.3442705,8055,1574431804,343010902,,-8.885714285714286,51.948,0.0
1574431804.391201,8056,1574431804,390526056,,-8.885714285714286,54.054,0.0
1574431804.439742,8057,1574431804,438775062,,-8.885714285714286,52.65,0.0
1574431804.487427,8058,1574431804,486643075,,-8.885714285714286,53.352,0.0
1574431804.5517519,8059,1574431804,550846099,,-8.885714285714286,53.352,0.0
1574431804.5998878,8060,1574431804,598910093,,-8.885714285714286,53.352,0.0
1574431804.6485524,8061,1574431804,646904945,,-8.885714285714286,53.352,0.0
1574431804.6956568,8062,1574431804,694828033,,-8.885714285714286,53.352,0.0
1574431804.7446449,8063,1574431804,743275880,,-8.885714285714286,53.352,0.0
1574431804.791114,8064,1574431804,790776014,,-8.857142857142858,52.65,0.0
1574431804.8401432,8065,1574431804,839273929,,-8.771428571428572,53.352,0.0
1574431804.9036763,8066,1574431804,902653932,,-8.614285714285714,53.352,0.0
1574431804.9523985,8067,1574431804,951106071,,-8.6,53.352,0.0
1574431805.0002737,8068,1574431804,999120950,,-8.6,53.352,0.0
1574431805.0477297,8069,1574431805,47000885,,-8.557142857142857,53.352,0.0
1574431805.0958667,8070,1574431805,94949960,,-8.557142857142857,53.352,0.0
1574431805.1442358,8071,1574431805,143423080,,-8.557142857142857,53.352,0.0
1574431805.1919,8072,1574431805,191478013,,-8.557142857142857,53.352,0.0
1574431805.2398767,8073,1574431805,239407062,,-8.557142857142857,53.352,0.0
1574431805.304046,8074,1574431805,303122043,,-8.557142857142857,53.352,0.0
1574431805.3521786,8075,1574431805,351164102,,-8.557142857142857,53.352,0.0
1574431805.3994164,8076,1574431805,399074077,,-8.557142857142857,53.352,0.0
1574431805.4478853,8077,1574431805,447256088,,-8.557142857142857,53.352,0.0
1574431805.4954357,8078,1574431805,495080947,,-8.557142857142857,53.352,0.0
1574431805.5439885,8079,1574431805,543334007,,-8.557142857142857,53.352,0.0
1574431805.592292,8080,1574431805,591339111,,-8.528571428571428,53.352,0.0
1574431805.656017,8081,1574431805,655225992,,-8.528571428571428,53.352,0.0
1574431805.7043896,8082,1574431805,703466892,,-8.528571428571428,53.352,0.0
1574431805.7522128,8083,1574431805,751403093,,-8.528571428571428,53.352,0.0
1574431805.801518,8084,1574431805,799812078,,-8.528571428571428,53.352,0.0
1574431805.8482072,8085,1574431805,847573041,,-8.528571428571428,53.352,0.0
1574431805.8961742,8086,1574431805,895344018,,-8.528571428571428,53.352,0.0
1574431805.9446497,8087,1574431805,943587064,,-8.528571428571428,53.352,0.0
1574431805.991961,8088,1574431805,991508007,,-8.528571428571428,53.352,0.0
1574431806.0561001,8089,1574431806,55315971,,-8.528571428571428,53.352,0.0
1574431806.104475,8090,1574431806,103549957,,-8.528571428571428,53.352,0.0
1574431806.1523886,8091,1574431806,151652097,,-8.557142857142857,52.65,0.0
1574431806.2007828,8092,1574431806,199758052,,-8.557142857142857,54.054,0.0
1574431806.2493076,8093,1574431806,247980117,,-8.557142857142857,52.65,0.0
1574431806.2961583,8094,1574431806,295517921,,-8.557142857142857,54.054,0.0
1574431806.3444173,8095,1574431806,343652963,,-8.557142857142857,52.65,0.0
1574431806.4081173,8096,1574431806,407592058,,-8.557142857142857,54.054,0.0
1574431806.456584,8097,1574431806,455523014,,-8.557142857142857,52.65,0.0
1574431806.5051274,8098,1574431806,503954887,,-8.557142857142857,54.054,0.0
1574431806.55249,8099,1574431806,551738023,,-8.571428571428571,53.352,0.0
1574431806.6008801,8100,1574431806,599864006,,-8.6,53.352,0.0
1574431806.648502,8101,1574431806,647850990,,-8.642857142857142,53.352,0.0
1574431806.6962948,8102,1574431806,695602893,,-8.657142857142857,53.352,0.0
1574431806.744365,8103,1574431806,743828058,,-8.771428571428572,53.352,0.0
1574431806.8091078,8104,1574431806,808125019,,-8.771428571428572,53.352,0.0
1574431806.8574355,8105,1574431806,855988025,,-8.771428571428572,53.352,0.0
1574431806.9050467,8106,1574431806,903897047,,-8.771428571428572,54.054,0.0
1574431806.952566,8107,1574431806,951914072,,-8.742857142857142,53.352,0.0
1574431807.001325,8108,1574431806,999950885,,-8.742857142857142,53.352,0.0
1574431807.048201,8109,1574431807,47810077,,-8.742857142857142,53.352,0.0
1574431807.0964527,8110,1574431807,95855951,,-8.742857142857142,53.352,0.0
1574431807.161187,8111,1574431807,159980058,,-8.742857142857142,53.352,0.0
1574431807.2101712,8112,1574431807,209125995,,-8.742857142857142,53.352,0.0
1574431807.2588017,8113,1574431807,256144046,,-8.742857142857142,53.352,0.0
1574431807.305,8114,1574431807,304018020,,-8.742857142857142,53.352,0.0
1574431807.3525772,8115,1574431807,352072954,,-8.742857142857142,54.054,0.0
1574431807.400643,8116,1574431807,399893999,,-8.742857142857142,52.65,0.0
1574431807.4494078,8117,1574431807,448133945,,-8.742857142857142,54.054,0.0
1574431807.5123677,8118,1574431807,511993885,,-8.742857142857142,53.352,0.0
1574431807.5604177,8119,1574431807,559977054,,-8.742857142857142,53.352,0.0
1574431807.6095273,8120,1574431807,608655929,,-8.742857142857142,53.352,0.0
1574431807.6574092,8121,1574431807,656435966,,-8.742857142857142,53.352,0.0
1574431807.7058005,8122,1574431807,704509019,,-8.742857142857142,53.352,0.0
1574431807.7536633,8123,1574431807,752326011,,-8.742857142857142,53.352,0.0
1574431807.800888,8124,1574431807,800426006,,-8.742857142857142,54.054,0.0
1574431807.8494258,8125,1574431807,848551034,,-8.742857142857142,52.65,0.0
1574431807.9133112,8126,1574431807,912313938,,-8.742857142857142,54.054,0.0
1574431807.9610975,8127,1574431807,960381984,,-8.742857142857142,53.352,0.0
1574431808.0095468,8128,1574431808,8388996,,-8.742857142857142,53.352,0.0
1574431808.0568354,8129,1574431808,56346893,,-8.742857142857142,54.054,0.0
1574431808.1058135,8130,1574431808,104435920,,-8.742857142857142,53.352,0.0
1574431808.153465,8131,1574431808,152458906,,-8.742857142857142,53.352,0.0
1574431808.2010486,8132,1574431808,200371980,,-8.771428571428572,53.352,0.0
1574431808.2648804,8133,1574431808,264348030,,-8.771428571428572,53.352,0.0
1574431808.3129807,8134,1574431808,312560081,,-8.771428571428572,53.352,0.0
1574431808.3614857,8135,1574431808,360616922,,-8.771428571428572,53.352,0.0
1574431808.409509,8136,1574431808,408839941,,-8.771428571428572,54.756,0.0
1574431808.4583418,8137,1574431808,456774950,,-8.771428571428572,52.65,0.0
1574431808.5054564,8138,1574431808,504616975,,-8.771428571428572,54.054,0.0
1574431808.553513,8139,1574431808,552871942,,-8.885714285714286,53.352,0.0
1574431808.6018114,8140,1574431808,600976943,,-9.028571428571428,53.352,0.0
1574431808.6662335,8141,1574431808,664858102,,-9.142857142857142,53.352,0.0
1574431808.7139478,8142,1574431808,712775945,,-9.214285714285714,53.352,0.0
1574431808.761411,8143,1574431808,760719060,,-9.257142857142858,53.352,0.0
1574431808.8094895,8144,1574431808,808818101,,-9.271428571428572,53.352,0.0
1574431808.8578146,8145,1574431808,856941938,,-9.4,53.352,0.0
1574431808.9056797,8146,1574431808,904736042,,-9.442857142857143,53.352,0.0
1574431808.953969,8147,1574431808,952795028,,-9.471428571428572,53.352,0.0
1574431809.0179074,8148,1574431809,16844987,,-9.471428571428572,53.352,0.0
1574431809.065739,8149,1574431809,64738988,,-9.471428571428572,54.054,0.0
1574431809.1135504,8150,1574431809,112888097,,-9.471428571428572,53.352,0.0
1574431809.161813,8151,1574431809,161019086,,-9.442857142857143,53.352,0.0
1574431809.2097464,8152,1574431809,209023952,,-9.442857142857143,53.352,0.0
1574431809.2573936,8153,1574431809,256692886,,-9.442857142857143,53.352,0.0
1574431809.3058875,8154,1574431809,304831027,,-9.4,53.352,0.0
1574431809.3699982,8155,1574431809,368670940,,-9.314285714285715,54.756,0.0
1574431809.4180496,8156,1574431809,416980028,,-9.257142857142858,53.352,0.0
1574431809.465639,8157,1574431809,464888095,,-9.257142857142858,53.352,0.0
1574431809.514167,8158,1574431809,513128995,,-9.257142857142858,53.352,0.0
1574431809.5621254,8159,1574431809,560870885,,-9.257142857142858,53.352,0.0
1574431809.611052,8160,1574431809,609438896,,-9.271428571428572,53.352,0.0
1574431809.658101,8161,1574431809,657426118,,-9.271428571428572,53.352,0.0
1574431809.7074587,8162,1574431809,705116987,,-9.271428571428572,53.352,0.0
1574431809.7698984,8163,1574431809,769192934,,-9.271428571428572,54.054,0.0
1574431809.8178997,8164,1574431809,817378997,,-9.271428571428572,53.352,0.0
1574431809.8657048,8165,1574431809,865019083,,-9.271428571428572,54.054,0.0
1574431809.914009,8166,1574431809,913245916,,-9.271428571428572,53.352,0.0
1574431809.961883,8167,1574431809,961148977,,-9.271428571428572,53.352,0.0
1574431810.0106752,8168,1574431810,9397029,,-9.271428571428572,53.352,0.0
1574431810.0575342,8169,1574431810,57058095,,-9.271428571428572,53.352,0.0
1574431810.1218352,8170,1574431810,121084928,,-9.271428571428572,53.352,0.0
1574431810.1708148,8171,1574431810,169193029,,-9.271428571428572,54.054,0.0
1574431810.218465,8172,1574431810,217431068,,-9.271428571428572,53.352,0.0
1574431810.2662814,8173,1574431810,265218019,,-9.271428571428572,53.352,0.0
1574431810.314796,8174,1574431810,313312053,,-9.271428571428572,53.352,0.0
1574431810.362373,8175,1574431810,361213922,,-9.271428571428572,53.352,0.0
1574431810.4097798,8176,1574431810,409341096,,-9.257142857142858,54.054,0.0
1574431810.458103,8177,1574431810,457560062,,-9.257142857142858,53.352,0.0
1574431810.522269,8178,1574431810,521547079,,-9.257142857142858,54.054,0.0
1574431810.5703125,8179,1574431810,569899082,,-9.257142857142858,53.352,0.0
1574431810.6186311,8180,1574431810,617705106,,-9.257142857142858,53.352,0.0
1574431810.666186,8181,1574431810,665606021,,-9.257142857142858,53.352,0.0
1574431810.7148268,8182,1574431810,713666915,,-9.257142857142858,54.054,0.0
1574431810.7624965,8183,1574431810,761801004,,-9.257142857142858,53.352,0.0
1574431810.8106406,8184,1574431810,809706926,,-9.257142857142858,54.054,0.0
1574431810.8738947,8185,1574431810,873423099,,-9.257142857142858,53.352,0.0
1574431810.9223466,8186,1574431810,921700000,,-9.257142857142858,53.352,0.0
1574431810.9707851,8187,1574431810,969623088,,-9.228571428571428,53.352,0.0
1574431811.0187795,8188,1574431811,17760038,,-9.185714285714285,53.352,0.0
1574431811.0658815,8189,1574431811,65545082,,-9.142857142857142,53.352,0.0
1574431811.1156259,8190,1574431811,113821983,,-9.1,53.352,0.0
1574431811.1623006,8191,1574431811,161619901,,-9.1,54.756,0.0
1574431811.226503,8192,1574431811,225349903,,-9.1,53.352,0.0
1574431811.274208,8193,1574431811,273714065,,-9.1,53.352,0.0
1574431811.3227553,8194,1574431811,321949005,,-9.1,53.352,0.0
1574431811.370224,8195,1574431811,369621038,,-9.057142857142857,54.054,0.0
1574431811.4185114,8196,1574431811,417866945,,-9.014285714285714,53.352,0.0
1574431811.467216,8197,1574431811,465781927,,-9.014285714285714,54.054,0.0
1574431811.5149689,8198,1574431811,513787031,,-9.014285714285714,53.352,0.0
1574431811.5629003,8199,1574431811,561799049,,-9.028571428571428,53.352,0.0
1574431811.6263645,8200,1574431811,625818967,,-9.028571428571428,53.352,0.0
1574431811.674341,8201,1574431811,673787117,,-9.028571428571428,54.054,0.0
1574431811.7226803,8202,1574431811,721890926,,-9.028571428571428,53.352,0.0
1574431811.770198,8203,1574431811,769807100,,-9.057142857142857,53.352,0.0
1574431811.818673,8204,1574431811,818145036,,-9.057142857142857,54.054,0.0
1574431811.8666484,8205,1574431811,865953922,,-9.057142857142857,54.054,0.0
1574431811.9174988,8206,1574431811,913975000,,-9.071428571428571,53.352,0.0
1574431811.9782736,8207,1574431811,977833986,,-9.071428571428571,53.352,0.0
1574431812.0272481,8208,1574431812,26225090,,-9.071428571428571,53.352,0.0
1574431812.0745049,8209,1574431812,73935985,,-9.071428571428571,54.054,0.0
1574431812.1229353,8210,1574431812,122076034,,-9.071428571428571,53.352,0.0
1574431812.1705768,8211,1574431812,170006036,,-9.071428571428571,53.352,0.0
1574431812.21919,8212,1574431812,218204021,,-9.071428571428571,54.054,0.0
1574431812.2668142,8213,1574431812,266125917,,-9.071428571428571,53.352,0.0
1574431812.3154814,8214,1574431812,314654111,,-9.071428571428571,53.352,0.0
1574431812.3792427,8215,1574431812,378159046,,-9.071428571428571,53.352,0.0
1574431812.4269102,8216,1574431812,426294088,,-9.071428571428571,53.352,0.0
1574431812.47434,8217,1574431812,474061012,,-9.071428571428571,53.352,0.0
1574431812.5228705,8218,1574431812,522340059,,-9.071428571428571,54.756,0.0
1574431812.5708423,8219,1574431812,570236921,,-9.071428571428571,53.352,0.0
1574431812.619059,8220,1574431812,618482112,,-9.071428571428571,53.352,0.0
1574431812.6685963,8221,1574431812,666466951,,-9.1,53.352,0.0
1574431812.731361,8222,1574431812,730608940,,-9.1,54.054,0.0
1574431812.779059,8223,1574431812,778553009,,-9.114285714285714,52.65,0.0
1574431812.8273075,8224,1574431812,826385974,,-9.114285714285714,54.756,0.0
1574431812.8747866,8225,1574431812,874355077,,-9.114285714285714,53.352,0.0
1574431812.9235294,8226,1574431812,922584056,,-9.114285714285714,53.352,0.0
1574431812.971359,8227,1574431812,970613956,,-9.114285714285714,53.352,0.0
1574431813.0197556,8228,1574431813,18577098,,-9.114285714285714,54.054,0.0
1574431813.0669703,8229,1574431813,66328048,,-9.114285714285714,53.352,0.0
1574431813.1312673,8230,1574431813,130614042,,-9.114285714285714,53.352,0.0
1574431813.1796181,8231,1574431813,178649902,,-9.114285714285714,53.352,0.0
1574431813.2278488,8232,1574431813,226550102,,-9.114285714285714,53.352,0.0
1574431813.2751517,8233,1574431813,274441957,,-9.114285714285714,54.054,0.0
1574431813.3240001,8234,1574431813,322834968,,-9.114285714285714,54.054,0.0
1574431813.3709562,8235,1574431813,370501995,,-9.114285714285714,53.352,0.0
1574431813.4189656,8236,1574431813,418591976,,-9.114285714285714,53.352,0.0
1574431813.4829984,8237,1574431813,482650995,,-9.114285714285714,53.352,0.0
1574431813.531225,8238,1574431813,530709028,,-9.114285714285714,53.352,0.0
1574431813.5791175,8239,1574431813,578649997,,-9.114285714285714,54.756,0.0
1574431813.6277275,8240,1574431813,626763105,,-9.114285714285714,53.352,0.0
1574431813.6749573,8241,1574431813,674614906,,-9.114285714285714,53.352,0.0
1574431813.724102,8242,1574431813,723120927,,-9.114285714285714,53.352,0.0
1574431813.7717216,8243,1574431813,770672082,,-9.114285714285714,53.352,0.0
1574431813.8354352,8244,1574431813,834666967,,-9.114285714285714,53.352,0.0
1574431813.8836198,8245,1574431813,882755041,,-9.114285714285714,54.054,0.0
1574431813.9320552,8246,1574431813,931085109,,-9.114285714285714,53.352,0.0
1574431813.980078,8247,1574431813,979023933,,-9.114285714285714,54.054,0.0
1574431814.0273092,8248,1574431814,26807069,,-9.1,53.352,0.0
1574431814.0750916,8249,1574431814,74801921,,-9.1,53.352,0.0
1574431814.1236641,8250,1574431814,123208045,,-9.071428571428571,53.352,0.0
1574431814.17179,8251,1574431814,171127080,,-9.057142857142857,54.054,0.0
1574431814.235807,8252,1574431814,235186100,,-9.057142857142857,53.352,0.0
1574431814.2839284,8253,1574431814,283016920,,-9.057142857142857,53.352,0.0
1574431814.331829,8254,1574431814,331177949,,-9.057142857142857,54.054,0.0
